[
  {
    "id": 1,
    "name": "일일향 강남역3호점",
    "address": "서울 서초구 서초대로78길 22 홍우빌딩 3층",
    "lat": 37.4958341,
    "lng": 127.0275584,
    "category": "중식",
    "priceRange": "단품 1~2만원대",
    "parking": true,
    "reservation": "전화 예약",
    "naverUrl": "https://naver.me/xqfV4Y0o",
    "hasRoom": true,
    "notes": "4인 이상 룸 예약 가능, 룸 예약 시 점심 1인 4만원 이상 주문",
    "image": "./images/일일향.jpg",
    "menuImage": "./images/일일향_메뉴.jpg"
  },
  {
    "id": 2,
    "name": "파브란트 강남점",
    "address": "서울 강남구 테헤란로 129 빗썸금융타워 지하2층",
    "lat": 37.4997905,
    "lng": 127.032445,
    "category": "샤브샤브",
    "priceRange": "2만원대",
    "parking": true,
    "reservation": "네이버 예약",
    "naverUrl": "https://naver.me/G9R9jB5O",
    "hasRoom": false,
    "notes": "",
    "image": "./images/파브란트.jpg",
    "menuImage": "./images/파브란트_메뉴.jpg"
  },
  {
    "id": 3,
    "name": "이춘복참치&스시 강남점",
    "address": "서울 서초구 강남대로61길 13",
  "lat": 37.4989092,
  "lng": 127.0255375,
    "category": "일식",
    "priceRange": "정식 2~3만원대",
    "parking": true,
    "reservation": "네이버 예약",
    "naverUrl": "https://naver.me/FpM1zXvO",
    "hasRoom": false,
    "notes": "5인 이상 룸 예약 가능",
    "image": "./images/이춘복참치.jpg",
    "menuImage": "./images/이춘복참치_메뉴.jpg"
  },
  {
  "id": 4,
  "name": "초선과여포",
  "address": "서울 서초구 서초대로78길 44 2층 201호",
  "lat": 37.493752,
  "lng": 127.0284737,
  "category": "중식",
  "priceRange": "코스 3만원부터",
  "parking": true,
  "reservation": "캐치테이블 예약",
  "naverUrl": "https://naver.me/GDQ2ek63",
  "hasRoom": true,
  "notes": "2만원대 점심특선 있음, 4인 이상 룸 예약 가능",
  "image": "./images/초선과여포.jpg",
  "menuImage": "./images/초선과여포_메뉴.jpg"
 },
{
  "id": 6,
  "name": "아방궁",
  "address": "서울 강남구 역삼로1길 18",
  "lat": 37.4944057,
  "lng": 127.0306331,
  "category": "중식",
  "priceRange": "코스 3만원대부터",
  "parking": false,
  "reservation": "네이버 예약",
  "naverUrl": "https://naver.me/5yIq9rW3",
  "hasRoom": true,
  "notes": "네이버 예약 4인부터만 가능, 전화 예약으로 3인 룸 예약 가능",
  "image": "./images/아방궁.jpg",
  "menuImage": "./images/아방궁_메뉴.jpg"
},
{
  "id": 7,
  "name": "삼호복집",
  "address": "서울 서초구 강남대로51길 5 기우빌딩",
  "lat": 37.4911148,
  "lng": 127.0298594,
  "category": "복어요리",
  "priceRange": "코스 3만원대부터",
  "parking": true,
  "reservation": "캐치테이블 예약",
  "naverUrl": "https://naver.me/GR5zDzBB",
  "hasRoom": true,
  "notes": "2인 룸 예약 가능",
  "image": "./images/삼호복집.jpg",
  "menuImage": "./images/삼호복집_메뉴.jpg"
},
{
  "id": 8,
  "name": "닥터로빈 서초점",
  "address": "서울 서초구 서초대로74길 11 B1 103호",
  "lat": 37.4966085,
  "lng": 127.0269023,
  "category": "양식",
  "priceRange": "단품 2~3만원대",
  "parking": true,
  "reservation": "네이버 예약",
  "naverUrl": "https://naver.me/FgWQMBNL",
  "hasRoom": false,
  "notes": "평일 점심 11시 30분 예약만 가능",
  "image": "./images/닥터로빈.png",
  "menuImage": "./images/닥터로빈_메뉴.jpg"
},
{
  "id": 9,
  "name": "두르가 강남점",
  "address": "서울 강남구 강남대로94길 21 지상1층",
  "lat": 37.499745,
  "lng": 127.0289618,
  "category": "인도식",
  "priceRange": "2만원대",
  "parking": false,
  "reservation": "네이버 예약",
  "naverUrl": "https://naver.me/GPl7OVn5",
  "hasRoom": false,
  "notes": "6인 이상 룸 예약 가능",
  "image": "./images/두르가.jpg",
  "menuImage": "./images/두르가_메뉴.jpg"
},
{
  "id": 10,
  "name": "바바인디아",
  "address": "서울 서초구 강남대로 359 도씨에빛 2차 201",
  "lat": 37.4948366,
  "lng": 127.0286877,
  "category": "인도식",
  "priceRange": "세트 2만원대",
  "parking": true,
  "reservation": "네이버 예약",
  "naverUrl": "https://naver.me/5OaAn3qe",
  "hasRoom": false,
  "notes": "",
  "image": "./images/바바인디아.jpg",
  "menuImage": "./images/바바인디아_메뉴.jpg"
},
{
  "id": 11,
  "name": "강남복칼국수",
  "address": "서울 서초구 서초대로74길 23 서초타운트라팰리스 2층",
  "lat": 37.4955303,
  "lng": 127.0272242,
  "category": "복어요리",
  "priceRange": "세트 1만원대부터",
  "parking": true,
  "reservation": "전화 예약",
  "naverUrl": "https://naver.me/5AYqq3nk",
  "hasRoom": true,
  "notes": "단독룸 이용 시 2인-4.5만/1인, 3인-4만/1인 이상 주문",
  "image": "./images/강남복칼국수.jpg",
  "menuImage": "./images/강남복칼국수_메뉴.jpg"
},
{
  "id": 13,
  "name": "중식당표량",
  "address": "서울 서초구 서운로 133 2층 중식당표량",
  "lat": 37.4953718,
  "lng": 127.0247246,
  "category": "중식",
  "priceRange": "코스 2~3만원대",
  "parking": true,
  "reservation": "네이버 예약",
  "naverUrl": "https://naver.me/GD4xyLAl",
  "hasRoom": true,
  "notes": "2인 룸 예약 가능, 코스 주문 필수",
  "image": "./images/표량.jpg",
  "menuImage": "./images/표량_메뉴.jpg"
},
{
  "id": 14,
  "name": "잡어와묵은지",
  "address": "서울 서초구 서초대로74길 23 서초타운트라팰리스",
  "lat": 37.4955721,
  "lng": 127.0270501,
  "category": "일식",
  "priceRange": "정식 2만원대",
  "parking": true,
  "reservation": "전화 예약",
  "naverUrl": "https://naver.me/5jKNmMRv",
  "hasRoom": true,
  "notes": "2인 룸 예약 가능",
  "image": "./images/잡어와묵은지.jpg",
  "menuImage": "./images/잡어와묵은지_메뉴.jpg"
},
{
  "id": 16,
  "name": "대진 도원참치 강남역점",
  "address": "서울 강남구 테헤란로 113 목화밀라트 지하1층",
  "lat": 37.498837,
  "lng": 127.029603,
  "category": "일식",
  "priceRange": "정식 2만원대",
  "parking": true,
  "reservation": "네이버 예약",
  "naverUrl": "https://naver.me/FVw5QELh",
  "hasRoom": true,
  "notes": "2인 룸 예약 가능, 정식 주문 필수",
  "image": "./images/도원참치.jpg",
  "menuImage": "./images/도원참치_메뉴.jpg"
},
{
  "id": 17,
  "name": "차슈밍",
  "address": "서울 강남구 강남대로94길 21",
  "lat": 37.4996719,
  "lng": 127.0289428,
  "category": "중식",
  "priceRange": "코스 2만원대부터",
  "parking": false,
  "reservation": "전화 예약",
  "naverUrl": "https://naver.me/5m6xMaF6",
  "hasRoom": true,
  "notes": "3인 이상 룸 예약 가능, 코스 주문 필수",
  "image": "./images/차슈밍.jpg",
  "menuImage": "./images/차슈밍_메뉴.jpg"
},
{
  "id": 18,
  "name": "전설의우대갈비 강남직영점",
  "address": "서울 강남구 강남대로94길 10 3층 1호",
  "lat": 37.4991618,
  "lng": 127.0281867,
  "category": "한식",
  "priceRange": "세트 2만원대",
  "parking": true,
  "reservation": "네이버 예약",
  "naverUrl": "https://naver.me/FfFPcKR6",
  "hasRoom": true,
  "notes": "2인 이상 룸 예약 가능",
  "image": "./images/전설의우대갈비.jpg",
  "menuImage": "./images/전설의우대갈비_메뉴.jpg"
},
{
  "id": 19,
  "name": "청담등심 강남역점",
  "address": "서울 강남구 강남대로78길 18 1층",
  "lat": 37.4949903,
  "lng": 127.0308632,
  "category": "한식",
  "priceRange": "정식 2만원대",
  "parking": true,
  "reservation": "네이버 예약",
  "naverUrl": "https://naver.me/5PHqJpP9",
  "hasRoom": true,
  "notes": "4인 이상 룸 예약 가능",
  "image": "./images/청담등심.jpg",
  "menuImage": "./images/청담등심_메뉴.jpg"
},
{
  "id": 20,
  "name": "더몰트하우스 강남역점",
  "address": "서울 서초구 서초대로73길 9 1층",
  "lat": 37.4983214,
  "lng": 127.0252244,
  "category": "양식",
  "priceRange": "세트 1만원대부터",
  "parking": true,
  "reservation": "네이버 예약",
  "naverUrl": "https://naver.me/GLGLOJnU",
  "hasRoom": true,
  "notes": "3인 이상 룸 예약 가능, 예약금 있음",
  "image": "./images/더몰트하우스.jpg",
  "menuImage": "./images/더몰트하우스_메뉴.jpg"
},
{
  "id": 21,
  "name": "트라가 강남역점",
  "address": "서울 서초구 강남대로55길 24 2층 201호",
  "lat": 37.495634,
  "lng": 127.0255409,
  "category": "스페인식",
  "priceRange": "단품 2~3만원대",
  "parking": true,
  "reservation": "네이버 예약",
  "naverUrl": "https://naver.me/FchqYAQ8",
  "hasRoom": false,
  "notes": "1인 3만원대 세트 메뉴 있음",
  "image": "./images/트라가.jpg",
  "menuImage": "./images/트라가_메뉴.jpg"
},
{
  "id": 23,
  "name": "노랑저고리 한정식",
  "address": "서울 서초구 서초대로73길 9 타임빌딩 5층",
  "lat": 37.4982696,
  "lng": 127.0252148,
  "category": "한식",
  "priceRange": "정식 2만원대",
  "parking": true,
  "reservation": "네이버 예약",
  "naverUrl": "https://naver.me/F6s7wqvh",
  "hasRoom": false,
  "notes": "점심 6인 이상 룸 예약 가능",
  "image": "./images/노랑저고리.jpg",
  "menuImage": "./images/노랑저고리_메뉴.jpg"
},
{
  "id": 24,
  "name": "사유의서재",
  "address": "서울 강남구 강남대로98길 11 5층",
  "lat": 37.5007661,
  "lng": 127.0275923,
  "category": "한식",
  "priceRange": "단품 2만원대",
  "parking": true,
  "reservation": "네이버 예약",
  "naverUrl": "https://naver.me/FPFd7EaU",
  "hasRoom": false,
  "notes": "20만원 이상 주문 시 룸 예약 가능",
  "image": "./images/사유의서재.jpg",
  "menuImage": "./images/사유의서재_메뉴.jpg"
},
{
  "id": 25,
  "name": "이태원천상 강남역점",
  "address": "서울 서초구 서초대로74길 23 서초타운트라팰리스 지하1층",
  "lat": 37.495538,
  "lng": 127.0272037,
  "category": "일식",
  "priceRange": "단품 1~3만원대",
  "parking": true,
  "reservation": "전화 예약",
  "naverUrl": "https://naver.me/GwPt4mSX",
  "hasRoom": true,
  "notes": "프라이빗 좌석",
  "image": "./images/이태원천상.jpg",
  "menuImage": "./images/이태원천상_메뉴.jpg"
}
]